stop_id,stop_name,route_id,route_long_name,route_short_name
10044490,"Gilmore and Forest Fair Dr NB",5638,"R3 - Oxford-Forest Park Connector","R3"
10228005,"Fairfield Crossing Park & Ride",5640,"R6 - Job Connector","R6 "
10228005,"Fairfield Crossing Park & Ride",5638,"R3 - Oxford-Forest Park Connector","R3"
7235679,"MTS Transit Station",5632,"Gold Line","GL"
7235679,"MTS Transit Station",5633,"Green Line","GRL"
7235679,"MTS Transit Station",5620,"Blue Line","BL"
7235679,"MTS Transit Station",5636,"Red Line","RL"
7235679,"MTS Transit Station",5635,"R1 - Hamilton/Middletown Shuttle","R1"
7235680,"First Ave at Clinton St South Bound",5632,"Gold Line","GL"
7235680,"First Ave at Clinton St South Bound",5620,"Blue Line","BL"
7235681,"First Ave at Curtis St South Bound",5632,"Gold Line","GL"
7235681,"First Ave at Curtis St South Bound",5620,"Blue Line","BL"
7235682,"First Ave at Baltimore",5632,"Gold Line","GL"
7235682,"First Ave at Baltimore",5620,"Blue Line","BL"
7235683,"First Ave at Garfield St",5632,"Gold Line","GL"
7235683,"First Ave at Garfield St",5620,"Blue Line","BL"
7235684,"First Ave at Grimes St",5632,"Gold Line","GL"
7235684,"First Ave at Grimes St",5620,"Blue Line","BL"
7235685,"First Ave at Moore St",5620,"Blue Line","BL"
7235686,"Central Ave at Suthphin St",5620,"Blue Line","BL"
7235687,"Sutphin St at Arlington Ave",5620,"Blue Line","BL"
7235688,"Sutphin St at Sherman Ave East Bound",5620,"Blue Line","BL"
7235689,"Grand Ave at Stanley Ave",5620,"Blue Line","BL"
7235690,"Grand Ave at Highland Ave (Eastbound)",5620,"Blue Line","BL"
7235691,"Grand Ave at Florence St",5620,"Blue Line","BL"
7235692,"Grand Ave at Orchard St (Eastbound)",5620,"Blue Line","BL"
7235693,"Grand Ave at Euclid St (Eastbound)",5620,"Blue Line","BL"
7235694,"Grand Ave at Kensington (Eastbound)",5620,"Blue Line","BL"
7235695,"Grand Ave at Jackson Ln",5620,"Blue Line","BL"
7235696,"Grand Ave at Highview St (Eastbound)",5620,"Blue Line","BL"
7235697,"Grand Ave at Eaton Ave (Eastbound)",5620,"Blue Line","BL"
7235698,"Grand Ave at Walgreens Pharmacy",5620,"Blue Line","BL"
7235699,"Elliot Ave at Marie Dr",5620,"Blue Line","BL"
7235700,"Elliot Ave at Palm Beach Tan",5620,"Blue Line","BL"
7235701,"Marshal Rd at Auto Zone",5620,"Blue Line","BL"
7235702,"Old Roosevelt Rd (Midway)",5620,"Blue Line","BL"
7235703,"Old Roosevelt Rd-Across From Woodridge Apartments",5620,"Blue Line","BL"
7235704,"Old Roosevelt Rd at Wellington Rd",5620,"Blue Line","BL"
7235705,"Old Roosevelt Rd at Theatre Entrance",5620,"Blue Line","BL"
7235706,"Roosevelt Blvd at Cinn-Day Rd",5620,"Blue Line","BL"
7235707,"Cinn-Day Rd at Frischs Drive Way",5620,"Blue Line","BL"
7235708,"Cinn-Day Rd at Aldi's Grocery",5620,"Blue Line","BL"
7235709,"Meijer - Middletown",5620,"Blue Line","BL"
7235709,"Meijer - Middletown",5636,"Red Line","RL"
7235709,"Meijer - Middletown",6067,"CincyLink","CL"
7235710,"Towne Blvd at Meijer Service Station",5620,"Blue Line","BL"
7235710,"Towne Blvd at Meijer Service Station",5636,"Red Line","RL"
7235711,"Towne Blvd at Bus Stop Shelter",5620,"Blue Line","BL"
7235711,"Towne Blvd at Bus Stop Shelter",5636,"Red Line","RL"
7235712,"Towne Blvd at Kroger",5620,"Blue Line","BL"
7235712,"Towne Blvd at Kroger",5636,"Red Line","RL"
7235715,"Roosevelt Pkwy at Olive Garden",5620,"Blue Line","BL"
7235718,"Lowes",5620,"Blue Line","BL"
7235719,"Walmart at Bio Life",5620,"Blue Line","BL"
7235721,"Walmart-Middletown",5620,"Blue Line","BL"
7235722,"Lefferson Rd at Spring Garden Ct",5620,"Blue Line","BL"
7235723,"Lefferson Rd at Brandywine Ct",5620,"Blue Line","BL"
7235724,"Lefferson Rd at Mt Vernon Ct",5620,"Blue Line","BL"
7235725,"Cinn-Day Rd at Sunoco Service Station",5620,"Blue Line","BL"
7235726,"Caprice Dr at Cinn-Day Rd",5620,"Blue Line","BL"
7235727,"Caprice Dr at Saybrooke Ct",5620,"Blue Line","BL"
7235728,"Caprice Drive at Buckingham Ct",5620,"Blue Line","BL"
7235729,"Breiel Blvd at Lefferson Rd",5620,"Blue Line","BL"
7235730,"Breiel Blvd at Freedom Ct Apartments",5620,"Blue Line","BL"
7235731,"Aaron Dr at Food Mart",5620,"Blue Line","BL"
7235732,"Aaron Dr Across from Mayfield Village Apartments",5620,"Blue Line","BL"
7235733,"Aaron Dr at Breiel Blvd",5620,"Blue Line","BL"
7235734,"Breiel at Hawthorn Apts",5620,"Blue Line","BL"
7235735,"Breiel Blvd at School Yard",5620,"Blue Line","BL"
7235736,"Breiel Blvd at Bonita Dr",5620,"Blue Line","BL"
7235737,"Breiel at Patrick Square",5620,"Blue Line","BL"
7235738,"Breiel Blvd at Roosevelt Blvd",5620,"Blue Line","BL"
7235739,"Breiel Blvd at McDonalds",5620,"Blue Line","BL"
7235740,"Breiel Blvd at Grand Ave",5636,"Red Line","RL"
7235741,"Grand Ave at Watson Dry Cleaners",5620,"Blue Line","BL"
7235742,"Grand Ave at Eaton Ave (Westbound)",5620,"Blue Line","BL"
7235743,"Grand Ave and Ross St",5620,"Blue Line","BL"
7235744,"Grand Ave at Highview St (Westbound)",5620,"Blue Line","BL"
7235745,"Grand Ave at Dorset St",5620,"Blue Line","BL"
7235746,"Grand Ave at Kensington (Westbound)",5620,"Blue Line","BL"
7235747,"Grand Ave at Euclid St (Westtbound)",5620,"Blue Line","BL"
7235748,"Grand Ave at Orchard St (Westbound)",5620,"Blue Line","BL"
7235749,"Grand Ave at Highland Ave (Westbound)",5620,"Blue Line","BL"
7235750,"Grand Ave at Douglas St",5620,"Blue Line","BL"
7235751,"Sutphin St at Woodlawn Ave",5620,"Blue Line","BL"
7235752,"Sutphin St at Sherman Ave West Bound",5620,"Blue Line","BL"
7235753,"Sutphin St at Superior Ave",5620,"Blue Line","BL"
7235755,"Sutphin St at Central Ave",5620,"Blue Line","BL"
7235756,"Manchester Ave at Sutphin St",5620,"Blue Line","BL"
7235757,"Manchester Ave at Grimes St",5632,"Gold Line","GL"
7235757,"Manchester Ave at Grimes St",5620,"Blue Line","BL"
7235757,"Manchester Ave at Grimes St",5636,"Red Line","RL"
7235758,"Manchester Ave at Leibee St",5632,"Gold Line","GL"
7235758,"Manchester Ave at Leibee St",5620,"Blue Line","BL"
7235758,"Manchester Ave at Leibee St",5636,"Red Line","RL"
7235759,"Manchester Ave at Iglehart St",5632,"Gold Line","GL"
7235759,"Manchester Ave at Iglehart St",5620,"Blue Line","BL"
7235759,"Manchester Ave at Iglehart St",5636,"Red Line","RL"
7235760,"Manchester Ave at Clark St",5632,"Gold Line","GL"
7235760,"Manchester Ave at Clark St",5620,"Blue Line","BL"
7235760,"Manchester Ave at Clark St",5636,"Red Line","RL"
7235761,"Clark St at Trinity Place",5620,"Blue Line","BL"
7236380,"Crawford St at First Ave (Gold)",5632,"Gold Line","GL"
7236381,"Crawford St at Arlington",5632,"Gold Line","GL"
7236382,"Crawford St at Logan Ave",5632,"Gold Line","GL"
7236383,"Crawford St at Sherman Ave",5632,"Gold Line","GL"
7236384,"Crawford St at Woodlawn Ave",5632,"Gold Line","GL"
7236385,"Crawford St at Grand Ave",5632,"Gold Line","GL"
7236386,"Grand Ave at Moore St.",5632,"Gold Line","GL"
7236387,"Grand Ave at Wilson St.",5632,"Gold Line","GL"
7236388,"Grand Ave at Cleveland St.",5632,"Gold Line","GL"
7236389,"Wicoff St. at Queen Ave",5632,"Gold Line","GL"
7236390,"Wicoff St. at Hill Ave",5632,"Gold Line","GL"
7236396,"Roosevelt Blvd at Jackson Ln.",5632,"Gold Line","GL"
7236397,"Roosevelt Blvd at Bonita Dr.",5632,"Gold Line","GL"
7236398,"Shady Creek Apts",5632,"Gold Line","GL"
7236399,"Roosevelt Blvd at Eaton Ave",5632,"Gold Line","GL"
7236400,"Speedway at Breiel and Roosevelt Blvd",5632,"Gold Line","GL"
7236401,"Chatham Village Appts",5632,"Gold Line","GL"
7236403,"Bonita at Spring Grove Ln.",5632,"Gold Line","GL"
7236404,"Bonita Dr at Ct. Edmun",5632,"Gold Line","GL"
7236405,"Bonita Dr at Burbank Ave",5632,"Gold Line","GL"
7236406,"Burbank Ave at Ellis way",5632,"Gold Line","GL"
7236407,"Burbank Ave at Waynebrook St.",5632,"Gold Line","GL"
7236408,"Burbank Ave at Lamberton St.",5632,"Gold Line","GL"
7236409,"Burbank Ave at Sheffield St.",5632,"Gold Line","GL"
7236410,"Burbank Ave at Winton St.",5632,"Gold Line","GL"
7236411,"Burbank Ave at Brentwood St.",5632,"Gold Line","GL"
7236412,"Burbank Ave at Carolina St.",5632,"Gold Line","GL"
7236413,"Burbank Ave at Highland St.",5632,"Gold Line","GL"
7236414,"Highland St at Selden Ave",5632,"Gold Line","GL"
7236415,"Highland St. at Goldman Ave",5632,"Gold Line","GL"
7236416,"University Blvd at Woodlawn Ave",5632,"Gold Line","GL"
7236417,"University Ave at Logan Ave",5632,"Gold Line","GL"
7236418,"University Blvd at ManhattanSt",5632,"Gold Line","GL"
7236419,"Manchester Ave at Webster St",5632,"Gold Line","GL"
7236419,"Manchester Ave at Webster St",5636,"Red Line","RL"
7236420,"Manchester Ave at UDF",5632,"Gold Line","GL"
7236420,"Manchester Ave at UDF",5636,"Red Line","RL"
7236422,"Curtis St and Girard Ave",5632,"Gold Line","GL"
7236423,"Curtis St.",5632,"Gold Line","GL"
7236424,"Curtis St and Woodlawn Ave",5632,"Gold Line","GL"
7236425,"Curtis St at Parkview Ave",5632,"Gold Line","GL"
7236426,"Yankee Rd at Curtis St",5632,"Gold Line","GL"
7236427,"Yankee Rd at 14th Ave",5632,"Gold Line","GL"
7236428,"Yankee Rd at Kunz Ave",5632,"Gold Line","GL"
7236429,"Yankee Rd at Young St",5632,"Gold Line","GL"
7236430,"Baltimore St at Yankee Rd",5632,"Gold Line","GL"
7236431,"Baltimore St at Smith Ave",5632,"Gold Line","GL"
7236432,"Baltimore St at Lafayette Ave",5632,"Gold Line","GL"
7236433,"Lafayette Ave at Cherry St",5632,"Gold Line","GL"
7236434,"Lafayette Ave at Finley St",5632,"Gold Line","GL"
7236435,"Lafayette Ave at Yankee Rd",5632,"Gold Line","GL"
7236436,"Yankee Rd at Meadow Ave",5632,"Gold Line","GL"
7236437,"Yankee Rd at Pershing Ave",5632,"Gold Line","GL"
7236438,"Yankee Rd at Glenn Ave",5632,"Gold Line","GL"
7236439,"Yankee Rd First Church of God",5632,"Gold Line","GL"
7236440,"Nas-Car Drive Through",5632,"Gold Line","GL"
7236441,"Mohawk St and Waneta Ave",5632,"Gold Line","GL"
7236443,"Yankee Rd at Oneka St",5632,"Gold Line","GL"
7236444,"Yankee Rd at Lawn Ave",5632,"Gold Line","GL"
7236445,"14th Ave at Railroad Crossing",5632,"Gold Line","GL"
7236447,"Baltimore St at 14th Ave NB",5632,"Gold Line","GL"
7236448,"Baltimore St at Jacoby Ave",5632,"Gold Line","GL"
7236449,"Baltimore St at Forest Ave",5632,"Gold Line","GL"
7236450,"Baltimore St and Fairmount Ave",5632,"Gold Line","GL"
7236451,"Baltimore St at Fairfield Ave",5632,"Gold Line","GL"
7236452,"Baltimore St at Girard St",5632,"Gold Line","GL"
7236453,"Baltimore St at First Ave",5632,"Gold Line","GL"
7236454,"Baltimore at Central Ave",5632,"Gold Line","GL"
7236455,"Central Ave at Clark St",5632,"Gold Line","GL"
7236456,"Central Ave at Curtis St",5632,"Gold Line","GL"
7236457,"Central Ave at Smoke Shop",5632,"Gold Line","GL"
7237011,"Main St at Sorg Mansion",5633,"Green Line","GRL"
7237012,"Main St at Fifth Ave",5633,"Green Line","GRL"
7237013,"Main St at Sixth Ave",5633,"Green Line","GRL"
7237014,"Main St at Seventh Ave",5633,"Green Line","GRL"
7237015,"9th & Main SB",5633,"Green Line","GRL"
7237016,"Main St at Windsor Ave",5633,"Green Line","GRL"
7237017,"Main St at Eleventh Ave",5633,"Green Line","GRL"
7237018,"Main St at Fourteenth Ave",5633,"Green Line","GRL"
7237025,"Main St at Diamond Loop",5633,"Green Line","GRL"
7237025,"Main St at Diamond Loop",5635,"R1 - Hamilton/Middletown Shuttle","R1"
7237026,"Main and Oxford State (Speedway) SB",5633,"Green Line","GRL"
7237027,"Engles Corner SB",5633,"Green Line","GRL"
7237028,"Kroger at Oxford State Rd",5633,"Green Line","GRL"
7237028,"Kroger at Oxford State Rd",5635,"R1 - Hamilton/Middletown Shuttle","R1"
7237037,"Lafayette Ave and Minnesota St",5633,"Green Line","GRL"
7237037,"Lafayette Ave and Minnesota St",5635,"R1 - Hamilton/Middletown Shuttle","R1"
7237038,"Minnesota St at Douglas Park",5633,"Green Line","GRL"
7237038,"Minnesota St at Douglas Park",5635,"R1 - Hamilton/Middletown Shuttle","R1"
7237039,"Minnesota St at Eighteenth Ave",5633,"Green Line","GRL"
7237039,"Minnesota St at Eighteenth Ave",5635,"R1 - Hamilton/Middletown Shuttle","R1"
7237040,"Minnesota St at Seventeenth Ave",5633,"Green Line","GRL"
7237040,"Minnesota St at Seventeenth Ave",5635,"R1 - Hamilton/Middletown Shuttle","R1"
7237041,"Minnesota St at Sixteenth Ave",5633,"Green Line","GRL"
7237041,"Minnesota St at Sixteenth Ave",5635,"R1 - Hamilton/Middletown Shuttle","R1"
7237042,"Minnesota St at Fifteenth Ave",5633,"Green Line","GRL"
7237042,"Minnesota St at Fifteenth Ave",5635,"R1 - Hamilton/Middletown Shuttle","R1"
7237043,"Minnesota St at Fourteenth Ave",5633,"Green Line","GRL"
7237043,"Minnesota St at Fourteenth Ave",5635,"R1 - Hamilton/Middletown Shuttle","R1"
7237045,"Primary Health Solutions",5633,"Green Line","GRL"
7237045,"Primary Health Solutions",5635,"R1 - Hamilton/Middletown Shuttle","R1"
7237046,"9th & Yankee EB",5633,"Green Line","GRL"
7237046,"9th & Yankee EB",5635,"R1 - Hamilton/Middletown Shuttle","R1"
7237047,"Yankee Rd at Hanover Ave",5633,"Green Line","GRL"
7237047,"Yankee Rd at Hanover Ave",5635,"R1 - Hamilton/Middletown Shuttle","R1"
7237048,"Yankee Rd at Fifth Ave",5633,"Green Line","GRL"
7237048,"Yankee Rd at Fifth Ave",5635,"R1 - Hamilton/Middletown Shuttle","R1"
7237049,"Yankee Rd at Fourth Ave",5633,"Green Line","GRL"
7237049,"Yankee Rd at Fourth Ave",5635,"R1 - Hamilton/Middletown Shuttle","R1"
7237050,"Broad St at Girard Ave",5633,"Green Line","GRL"
7237050,"Broad St at Girard Ave",5635,"R1 - Hamilton/Middletown Shuttle","R1"
7237051,"Broad St at Middletown Public Library",5633,"Green Line","GRL"
7237051,"Broad St at Middletown Public Library",5635,"R1 - Hamilton/Middletown Shuttle","R1"
7237052,"Main St at Fifth/Third Bank",5633,"Green Line","GRL"
7237054,"Main St at Manchester St",5633,"Green Line","GRL"
7237055,"Main St at City Building",5633,"Green Line","GRL"
7237056,"Reinartz Blvd at Police Station",5633,"Green Line","GRL"
7237059,"Charles St at North Ave",5633,"Green Line","GRL"
7237060,"Charles St at Columbia Ave",5633,"Green Line","GRL"
7237061,"Charles St at Reinartz Blvd",5633,"Green Line","GRL"
7237062,"Charles St and Clayton",5633,"Green Line","GRL"
7237063,"Charles St at Van Ave",5633,"Green Line","GRL"
7237064,"Tytus Ave at Auburn St",5633,"Green Line","GRL"
7237065,"Tytus Ave at Catalpa",5633,"Green Line","GRL"
7237066,"Tytus Ave at Wilmore St",5633,"Green Line","GRL"
7237067,"Tytus Ave at Chase Bank",5633,"Green Line","GRL"
7237068,"Tytus Ave and Nelbar St",5633,"Green Line","GRL"
7237069,"Tytus Ave and Enoch St",5633,"Green Line","GRL"
7237070,"Tytus Ave at Princeton St",5633,"Green Line","GRL"
7237071,"Tytus Ave at Eldora St",5633,"Green Line","GRL"
7237072,"Tytus Ave at Ohio Ave",5633,"Green Line","GRL"
7237073,"Jewell Ave at Lowell St",5633,"Green Line","GRL"
7237074,"Jewell Ave at Bryant St",5633,"Green Line","GRL"
7237075,"Jewell Ave at Whittier St",5633,"Green Line","GRL"
7237076,"Jewell Ave at Hawthorne",5633,"Green Line","GRL"
7237077,"Jewell Ave at Longfellow St",5633,"Green Line","GRL"
7237078,"Jewell Ave at Browning St",5633,"Green Line","GRL"
7237079,"Shelley St at Tytus Ave",5633,"Green Line","GRL"
7237080,"Tytus Ave at Byron St",5633,"Green Line","GRL"
7237081,"Tytus Ave at Longfellow St",5633,"Green Line","GRL"
7237082,"Tytus Ave at Hawthorne",5633,"Green Line","GRL"
7237083,"Tytus Ave at Whittier St",5633,"Green Line","GRL"
7237084,"Tytus Ave at Verity Pkwy",5633,"Green Line","GRL"
7237085,"Wilbraham Ave at Royal Pines Apts",5633,"Green Line","GRL"
7237086,"Wilbraham Ave Midway",5633,"Green Line","GRL"
7237087,"Wilbraham Ave at Winona St (East End)",5633,"Green Line","GRL"
7237088,"Wilbraham Ave at Winona St (West End)",5633,"Green Line","GRL"
7237089,"Wilbraham Ave at Germantown Rd",5633,"Green Line","GRL"
7237090,"Wilbraham Ave at Wilmore St",5633,"Green Line","GRL"
7237091,"Wilbraham Ave at Malvern St",5633,"Green Line","GRL"
7237092,"Wilbraham Ave at Elwood St",5633,"Green Line","GRL"
7237093,"Elwood St at Erie Ave",5633,"Green Line","GRL"
7237094,"Elwood St at Verity Pkwy",5633,"Green Line","GRL"
7237097,"Verity Pkwy at Senior High Rise",5633,"Green Line","GRL"
7237282,"Chestnut Field Park & Ride",5643,"U3 - Tollgate Loop","U3"
7237284,"Morris Hall",5641,"U1 - Campus Core","U1"
7237285,"Miami Station D",5641,"U1 - Campus Core","U1"
7237287,"Cole Services Building",5641,"U1 - Campus Core","U1"
7237287,"Cole Services Building",5643,"U3 - Tollgate Loop","U3"
7237288,"East Quad",5641,"U1 - Campus Core","U1"
7237288,"East Quad",5643,"U3 - Tollgate Loop","U3"
7237289,"Farmer School",5641,"U1 - Campus Core","U1"
7237289,"Farmer School",5643,"U3 - Tollgate Loop","U3"
7237291,"McGuffey Hall",5617,"U4 - Western Campus/North Loop","U4"
7237292,"S. Campus Garage",5643,"U3 - Tollgate Loop","U3"
7237293,"Campus & Chestnut SB",5643,"U3 - Tollgate Loop","U3"
7238297,"Market Street Station - Area A",5638,"R3 - Oxford-Forest Park Connector","R3"
7238298,"High & East EB",5635,"R1 - Hamilton/Middletown Shuttle","R1"
7238299,"High & Hancock EB",5635,"R1 - Hamilton/Middletown Shuttle","R1"
7238300,"High & Fair EB",5635,"R1 - Hamilton/Middletown Shuttle","R1"
7238301,"Princeton Square Apts. NB",5635,"R1 - Hamilton/Middletown Shuttle","R1"
7238302,"Wal-Mart Fairfield Twp. EB",5635,"R1 - Hamilton/Middletown Shuttle","R1"
7238303,"Bridgewater Falls NB",5635,"R1 - Hamilton/Middletown Shuttle","R1"
7238304,"Butler Tech NB",5635,"R1 - Hamilton/Middletown Shuttle","R1"
7238305,"SR-4 at Liberty-Fairfield NB",5635,"R1 - Hamilton/Middletown Shuttle","R1"
7238306,"Kyle's Station Kroger",5635,"R1 - Hamilton/Middletown Shuttle","R1"
7238307,"Countryside Village & SR 747 NB",5635,"R1 - Hamilton/Middletown Shuttle","R1"
7238308,"SR-4 at Monroe Crossings NB",5635,"R1 - Hamilton/Middletown Shuttle","R1"
7238309,"Kohl's Distribution Center Northbound",5635,"R1 - Hamilton/Middletown Shuttle","R1"
7239425,"Oxford State Rd. & Main Street SB",5633,"Green Line","GRL"
7239425,"Oxford State Rd. & Main Street SB",5635,"R1 - Hamilton/Middletown Shuttle","R1"
7239426,"Kohl's Distribution Center Southbound",5635,"R1 - Hamilton/Middletown Shuttle","R1"
7239427,"SR-4 at Lesourdsville Lake SB",5635,"R1 - Hamilton/Middletown Shuttle","R1"
7239428,"Countryside Village & SR 747 SB",5635,"R1 - Hamilton/Middletown Shuttle","R1"
7239429,"Liberty Square",5635,"R1 - Hamilton/Middletown Shuttle","R1"
7239430,"Butler Metropolitan Housing Authority",5635,"R1 - Hamilton/Middletown Shuttle","R1"
7239431,"Butler Tech SB",5635,"R1 - Hamilton/Middletown Shuttle","R1"
7239432,"Bridgewater Falls WB",5635,"R1 - Hamilton/Middletown Shuttle","R1"
7239433,"Wal-Mart Fairfield Twp. WB",5635,"R1 - Hamilton/Middletown Shuttle","R1"
7239434,"Princeton Square Apts. SB",5635,"R1 - Hamilton/Middletown Shuttle","R1"
7239435,"High & Fair WB",5635,"R1 - Hamilton/Middletown Shuttle","R1"
7239436,"High & Erie WB",5635,"R1 - Hamilton/Middletown Shuttle","R1"
7239437,"High & 7th WB",5635,"R1 - Hamilton/Middletown Shuttle","R1"
7240364,"Central Ave at Dollar General",5636,"Red Line","RL"
7240365,"University Blvd at Needler's Market",5636,"Red Line","RL"
7240366,"University & Park NB",5636,"Red Line","RL"
7240367,"Miami University - Middletown",5636,"Red Line","RL"
7242186,"Hill Avenue and Pleasant Avenue NB",5638,"R3 - Oxford-Forest Park Connector","R3"
7242187,"Pleasant & Foster NB",5638,"R3 - Oxford-Forest Park Connector","R3"
7242188,"Pleasant & St Clair NB",5638,"R3 - Oxford-Forest Park Connector","R3"
7242189,"Pleasant & Fairview NB",5638,"R3 - Oxford-Forest Park Connector","R3"
7242190,"Miami U - Hamilton NB",5638,"R3 - Oxford-Forest Park Connector","R3"
7242192,"3rd & Dayton Street NB",5638,"R3 - Oxford-Forest Park Connector","R3"
7242193,"Market Street Station - Area B",5635,"R1 - Hamilton/Middletown Shuttle","R1"
7242193,"Market Street Station - Area B",5640,"R6 - Job Connector","R6 "
7242193,"Market Street Station - Area B",5638,"R3 - Oxford-Forest Park Connector","R3"
7242194,"Main Street and D Street",5638,"R3 - Oxford-Forest Park Connector","R3"
7242195,"Main and Eaton Street NB",5638,"R3 - Oxford-Forest Park Connector","R3"
7242196,"Main & Lawn WB",5638,"R3 - Oxford-Forest Park Connector","R3"
7242197,"Main St. and McKinley Ave.",5638,"R3 - Oxford-Forest Park Connector","R3"
7242198,"Main & Brookwood WB",5638,"R3 - Oxford-Forest Park Connector","R3"
7242199,"Kroger West Hamilton",5638,"R3 - Oxford-Forest Park Connector","R3"
7242200,"Meijer/W. Hamilton Park & Ride - to Oxford",5638,"R3 - Oxford-Forest Park Connector","R3"
7242201,"Island Lake Park NB",5638,"R3 - Oxford-Forest Park Connector","R3"
7242202,"Indian Trace Talawanda",5638,"R3 - Oxford-Forest Park Connector","R3"
7242203,"Chestnut and Maple Street",5617,"U4 - Western Campus/North Loop","U4"
7242203,"Chestnut and Maple Street",5638,"R3 - Oxford-Forest Park Connector","R3"
7242204,"Oak and Harris",5617,"U4 - Western Campus/North Loop","U4"
7242204,"Oak and Harris",5638,"R3 - Oxford-Forest Park Connector","R3"
7242205,"Richard Hall",5617,"U4 - Western Campus/North Loop","U4"
7242205,"Richard Hall",5638,"R3 - Oxford-Forest Park Connector","R3"
7242206,"Oak and Spring",5617,"U4 - Western Campus/North Loop","U4"
7242206,"Oak and Spring",5638,"R3 - Oxford-Forest Park Connector","R3"
7242207,"Miami Station C",5617,"U4 - Western Campus/North Loop","U4"
7242207,"Miami Station C",5638,"R3 - Oxford-Forest Park Connector","R3"
7243072,"Stanton Hall",5617,"U4 - Western Campus/North Loop","U4"
7243072,"Stanton Hall",5638,"R3 - Oxford-Forest Park Connector","R3"
7243073,"Indian Trace",5638,"R3 - Oxford-Forest Park Connector","R3"
7243074,"Island Lake Park SB",5638,"R3 - Oxford-Forest Park Connector","R3"
7243075,"Meijer/W. Hamilton Park & Ride - to Hamilton",5638,"R3 - Oxford-Forest Park Connector","R3"
7243076,"Bob Evans",5638,"R3 - Oxford-Forest Park Connector","R3"
7243077,"Main & Brookwood EB",5638,"R3 - Oxford-Forest Park Connector","R3"
7243078,"Butler Co. Lumber",5638,"R3 - Oxford-Forest Park Connector","R3"
7243079,"Armstead Park",5638,"R3 - Oxford-Forest Park Connector","R3"
7243080,"3rd and Dayton Street SB",5638,"R3 - Oxford-Forest Park Connector","R3"
7243082,"Miami U. - Hamilton SB",5638,"R3 - Oxford-Forest Park Connector","R3"
7243083,"Pleasant & Fairview SB",5638,"R3 - Oxford-Forest Park Connector","R3"
7243084,"Pleasant & St Clair SB",5638,"R3 - Oxford-Forest Park Connector","R3"
7243085,"Pleasant & Foster SB",5638,"R3 - Oxford-Forest Park Connector","R3"
7243900,"Front & Court SB",5640,"R6 - Job Connector","R6 "
7243901,"Front & Wilson SB",5640,"R6 - Job Connector","R6 "
7243906,"Hanover & 14th EB",5640,"R6 - Job Connector","R6 "
7243907,"Erie & Grand SB",5640,"R6 - Job Connector","R6 "
7243908,"McDonald's/Erie Blvd.",5640,"R6 - Job Connector","R6 "
7243909,"Dixie Hwy. & Bobmeyer SB",5640,"R6 - Job Connector","R6 "
7243910,"Dixie Hwy. & Corwin SB",5640,"R6 - Job Connector","R6 "
7243911,"Dixie Hwy. & Hicks SB",5638,"R3 - Oxford-Forest Park Connector","R3"
7243912,"Dixie Hwy. & Nilles SB",5638,"R3 - Oxford-Forest Park Connector","R3"
7243913,"Dixie Hwy. & Boehm SB",5638,"R3 - Oxford-Forest Park Connector","R3"
7243914,"Dixie Hwy. & Gilmore SB",5638,"R3 - Oxford-Forest Park Connector","R3"
7243915,"Gilmore & Resor SB",5638,"R3 - Oxford-Forest Park Connector","R3"
7243916,"Gilmore and Kolb Drive SB",5638,"R3 - Oxford-Forest Park Connector","R3"
7244714,"Gilmore & Annandale NB",5638,"R3 - Oxford-Forest Park Connector","R3"
7244715,"Dixie Hwy. & Jungle Jim NB",5638,"R3 - Oxford-Forest Park Connector","R3"
7244716,"Dixie Hwy. & Stadium NB",5638,"R3 - Oxford-Forest Park Connector","R3"
7244717,"Dixie Hwy. & Donald NB",5638,"R3 - Oxford-Forest Park Connector","R3"
7244718,"Dixie Hwy. & Hicks NB",5638,"R3 - Oxford-Forest Park Connector","R3"
7244719,"Dixie Hwy. & Corwin NB",5640,"R6 - Job Connector","R6 "
7244720,"Dixie Hwy. & Laurel NB",5640,"R6 - Job Connector","R6 "
7244721,"Hamilton Crossings",5640,"R6 - Job Connector","R6 "
7244722,"Kroger/ Erie Blvd.",5640,"R6 - Job Connector","R6 "
7244723,"Hanover & 14th WB",5640,"R6 - Job Connector","R6 "
7244724,"Hanover & East WB",5640,"R6 - Job Connector","R6 "
7244728,"Front & Wilson NB",5640,"R6 - Job Connector","R6 "
7244729,"County Courthouse",5640,"R6 - Job Connector","R6 "
7245359,"Port  Union & Seward EB",5640,"R6 - Job Connector","R6 "
7245360,"Koch Foods EB",5640,"R6 - Job Connector","R6 "
7245361,"Port Union & LeSaint EB",5640,"R6 - Job Connector","R6 "
7245362,"Port Union & Goldpark EB",5640,"R6 - Job Connector","R6 "
7245363,"SR-747 & Rialto SB",5640,"R6 - Job Connector","R6 "
7245364,"SR-747 & Devitt SB",5640,"R6 - Job Connector","R6 "
7245365,"Crescentville & Chesterdale EB",5640,"R6 - Job Connector","R6 "
7245366,"Chesterdale at Valdosta",5640,"R6 - Job Connector","R6 "
7245367,"Chesterdale & Kemper SB",5640,"R6 - Job Connector","R6 "
7246249,"Front & Chestnut SB",5640,"R6 - Job Connector","R6 "
7246250,"2nd & Hanover",5640,"R6 - Job Connector","R6 "
7247203,"Chesterdale & Kemper NB",5640,"R6 - Job Connector","R6 "
7247204,"Chesterdale and Valdosta",5640,"R6 - Job Connector","R6 "
7247205,"Crescentville & Chesterdale WB",5640,"R6 - Job Connector","R6 "
7247206,"Tyson Foods",5640,"R6 - Job Connector","R6 "
7247207,"SR-747 & Rialto NB",5640,"R6 - Job Connector","R6 "
7247208,"Port Union & Goldpark WB",5640,"R6 - Job Connector","R6 "
7247209,"Port Union & LeSaint WB",5640,"R6 - Job Connector","R6 "
7247210,"Koch Foods WB",5640,"R6 - Job Connector","R6 "
7247211,"Port Union & Seward WB",5640,"R6 - Job Connector","R6 "
7247215,"Fin-Pan",5640,"R6 - Job Connector","R6 "
7247223,"Kroger Hamilton/Grand WB",5640,"R6 - Job Connector","R6 "
7247224,"Washington & 2nd WB",5640,"R6 - Job Connector","R6 "
7247226,"Front & Chestnut NB",5640,"R6 - Job Connector","R6 "
7248717,"Central Ave at Central Pastry",5633,"Green Line","GRL"
7248717,"Central Ave at Central Pastry",5636,"Red Line","RL"
7248718,"Central Ave at Leibee St.",5633,"Green Line","GRL"
7248718,"Central Ave at Leibee St.",5636,"Red Line","RL"
7248719,"Central Ave at Grimes St.",5633,"Green Line","GRL"
7248719,"Central Ave at Grimes St.",5636,"Red Line","RL"
7248720,"Central Ave at McKinley (Eastbound)",5636,"Red Line","RL"
7248721,"Central Ave at Shafer St (Eastbound)",5636,"Red Line","RL"
7248722,"Shafer St at North Ave",5636,"Red Line","RL"
7248723,"Shafer St at Flemming Rd.",5636,"Red Line","RL"
7248724,"University Blvd at American Savings Bank",5636,"Red Line","RL"
7248725,"University Blvd at Richardson St.",5636,"Red Line","RL"
7248726,"University Blvd across from Sorg Pl",5636,"Red Line","RL"
7248727,"University Blvd at Park Ln",5636,"Red Line","RL"
7248728,"University Blvd at Miami University Dr",5636,"Red Line","RL"
7248731,"Breiel Blvd at Rosedale Rd",5636,"Red Line","RL"
7248732,"Breiel Blvd at Mallory Dr",5636,"Red Line","RL"
7248733,"Central Ave at Breiel Blvd Eastbound",5636,"Red Line","RL"
7248734,"Central Ave and Elsmere St",5636,"Red Line","RL"
7248735,"Central Ave and Heinkle St",5636,"Red Line","RL"
7248736,"Central Ave and Marshall",5636,"Red Line","RL"
7248737,"Access Counseling",5636,"Red Line","RL"
7248738,"Baverian Woods Dr at Apartment Office",5636,"Red Line","RL"
7248739,"Baverian Woods Dr at Vienna Forest",5636,"Red Line","RL"
7248741,"Towne Blvd at Social Security Office",5620,"Blue Line","BL"
7248741,"Towne Blvd at Social Security Office",5636,"Red Line","RL"
7248742,"Kettering Medical Center",5636,"Red Line","RL"
7248743,"Union Rd at Route 122",5636,"Red Line","RL"
7248744,"Atrium Medical Center",5636,"Red Line","RL"
7248745,"Market St at McDonalds Restaurant",5636,"Red Line","RL"
7248746,"Roosevelt Blvd at Big Lots",5636,"Red Line","RL"
7248747,"Roosevelt Blvd at Save-a-lot Grocery",5636,"Red Line","RL"
7248748,"Marie Dr at Kitty Hawk Plaza",5636,"Red Line","RL"
7248749,"Marie Dr at Thrift Store",5636,"Red Line","RL"
7248750,"Breiel Blvd at Shopping Center",5636,"Red Line","RL"
7248751,"Central Ave at Breiel Blvd Westbound",5636,"Red Line","RL"
7248752,"Central Ave at Burton",5636,"Red Line","RL"
7248753,"Central Ave at Senior Center",5636,"Red Line","RL"
7248754,"Central Ave at Highview St",5636,"Red Line","RL"
7248755,"Central Ave at Magnolia St",5636,"Red Line","RL"
7248756,"Central Ave at Glenmore St",5636,"Red Line","RL"
7248757,"Central Ave at Euclid St",5636,"Red Line","RL"
7248758,"Central Ave at Aberdeen St",5636,"Red Line","RL"
7248759,"Central Ave at McKnight St",5636,"Red Line","RL"
7248760,"Central Ave at Bellemonte St",5636,"Red Line","RL"
7248761,"Central Ave at Shafer St (Westbound)",5636,"Red Line","RL"
7248762,"Central Ave at McKinley (Westbound)",5636,"Red Line","RL"
7248763,"Central Ave at Harrison St",5636,"Red Line","RL"
7248764,"Central Ave at Moore St",5636,"Red Line","RL"
7248961,"Benton Hall",5641,"U1 - Campus Core","U1"
7248961,"Benton Hall",5643,"U3 - Tollgate Loop","U3"
7248962,"High & University WB",5641,"U1 - Campus Core","U1"
7248962,"High & University WB",5643,"U3 - Tollgate Loop","U3"
7248963,"Uptown Park",5641,"U1 - Campus Core","U1"
7248963,"Uptown Park",5617,"U4 - Western Campus/North Loop","U4"
7248964,"High & Locust",5641,"U1 - Campus Core","U1"
7248965,"Taco Bell",5641,"U1 - Campus Core","U1"
7248966,"Kroger",5641,"U1 - Campus Core","U1"
7248966,"Kroger",5643,"U3 - Tollgate Loop","U3"
7248967,"Stewart Square",5641,"U1 - Campus Core","U1"
7248967,"Stewart Square",5643,"U3 - Tollgate Loop","U3"
7248968,"Spring & Main EB",5641,"U1 - Campus Core","U1"
7248968,"Spring & Main EB",5643,"U3 - Tollgate Loop","U3"
7248969,"Hanna House 2",5641,"U1 - Campus Core","U1"
7248969,"Hanna House 2",5643,"U3 - Tollgate Loop","U3"
7248970,"Goggin Center",5641,"U1 - Campus Core","U1"
7249293,"College Corner Pike and Westgate Drive NB",5641,"U1 - Campus Core","U1"
7249294,"CCP and Melanee N",5641,"U1 - Campus Core","U1"
7249295,"Walmart - Oxford",5641,"U1 - Campus Core","U1"
7249296,"CCP and Melanee S",5641,"U1 - Campus Core","U1"
7249297,"College Corner Pike and Westgate Drive SB",5641,"U1 - Campus Core","U1"
7249298,"Miami Station B",5641,"U1 - Campus Core","U1"
7249298,"Miami Station B",5643,"U3 - Tollgate Loop","U3"
7249542,"Campus & Walnut SB",5643,"U3 - Tollgate Loop","U3"
7249544,"College and Central",5643,"U3 - Tollgate Loop","U3"
7249545,"Foxfire Dr and College",5643,"U3 - Tollgate Loop","U3"
7249546,"Foxfire Dr and Locust",5643,"U3 - Tollgate Loop","U3"
7249547,"Wells Mill",5643,"U3 - Tollgate Loop","U3"
7250337,"Porter Hall",5617,"U4 - Western Campus/North Loop","U4"
7250338,"King Library",5617,"U4 - Western Campus/North Loop","U4"
7250339,"Main & Withrow NB",5617,"U4 - Western Campus/North Loop","U4"
7250340,"Withrow & College",5617,"U4 - Western Campus/North Loop","U4"
7250341,"Sycamore & College",5617,"U4 - Western Campus/North Loop","U4"
7250342,"Sycamore and Poplar",5617,"U4 - Western Campus/North Loop","U4"
7250344,"Sycamore & Tallawanda",5617,"U4 - Western Campus/North Loop","U4"
7250345,"Tallawanda and Church",5617,"U4 - Western Campus/North Loop","U4"
7250346,"Laws Hall",5617,"U4 - Western Campus/North Loop","U4"
7250347,"Art Museum",5617,"U4 - Western Campus/North Loop","U4"
7250348,"Western Lodge",5617,"U4 - Western Campus/North Loop","U4"
7250349,"Boyd Hall",5617,"U4 - Western Campus/North Loop","U4"
7250350,"Beechwoods Hall",5617,"U4 - Western Campus/North Loop","U4"
7250764,"Ditmer",5617,"U4 - Western Campus/North Loop","U4"
7250765,"Child Development Center",5617,"U4 - Western Campus/North Loop","U4"
7254950,"Bonita at Emerald Green Apts",5632,"Gold Line","GL"
7254973,"Mohawk St at Oneka Ave",5632,"Gold Line","GL"
7263001,"Sutphin St at Linden Ave",5620,"Blue Line","BL"
7416768,"Rec Center",5641,"U1 - Campus Core","U1"
7425246,"BCRTA Headquarters",5635,"R1 - Hamilton/Middletown Shuttle","R1"
7425246,"BCRTA Headquarters",5640,"R6 - Job Connector","R6 "
7425246,"BCRTA Headquarters",6067,"CincyLink","CL"
7425246,"BCRTA Headquarters",5638,"R3 - Oxford-Forest Park Connector","R3"
7428743,"Charles St at Tytus Ave",5633,"Green Line","GRL"
7770847,"Main & Eaton SB",5638,"R3 - Oxford-Forest Park Connector","R3"
7770848,"University & Grand SB",5638,"R3 - Oxford-Forest Park Connector","R3"
7771401,"University & Grand NB",5638,"R3 - Oxford-Forest Park Connector","R3"
8061285,"Tri County Parkway",5640,"R6 - Job Connector","R6 "
8061286,"TJ MAX",5640,"R6 - Job Connector","R6 "
8061287,"495 E Kemper Rd,5640,"R6 - Job Connector","R6 "
8082477,"West Millet Parking Lot",5617,"U4 - Western Campus/North Loop","U4"
8082478,"Millett ",5617,"U4 - Western Campus/North Loop","U4"
8584458,"Washington and Central",5640,"R6 - Job Connector","R6 "
8584845,"Hanover and East",5640,"R6 - Job Connector","R6 "
8595103,"Meijer - West Chester Township",6067,"CincyLink","CL"
8595105,"Martin Luther King Dr & Burnet Ave EB",6067,"CincyLink","CL"
8595106,"Government Square Area D",6067,"CincyLink","CL"
8649946,"Pleasant Ave & Hill SB",5638,"R3 - Oxford-Forest Park Connector","R3"
9067076,"Government Square Area H",6067,"CincyLink","CL"
9067078,"Martin Luther King Dr & Eden Ave WB",6067,"CincyLink","CL"
9067742,"Martin Luther King Dr & Jefferson Ave WB",6067,"CincyLink","CL"
9067743,"Martin Luther King Dr & Bishop St WB",6067,"CincyLink","CL"
9068311,"Martin Luther King Dr & Bishop St EB",6067,"CincyLink","CL"
9068312,"Martin Luther King Dr & Jefferson Ave EB",6067,"CincyLink","CL"
9068314,"Martin Luther King Dr & Eden Ave EB",6067,"CincyLink","CL"
9123554,"Five Guys",5640,"R6 - Job Connector","R6 "
9126323,"MLK Dr & Burnet Ave WB",6067,"CincyLink","CL"
9164494,"Bavarian St at Central Ave",5636,"Red Line","RL"
9164495,"Manchester Ave at Charles St",5632,"Gold Line","GL"
9164495,"Manchester Ave at Charles St",5620,"Blue Line","BL"
9164495,"Manchester Ave at Charles St",5636,"Red Line","RL"
9164501,"Curtis St at Reynolds Ave",5633,"Green Line","GRL"
9164501,"Curtis St at Reynolds Ave",5636,"Red Line","RL"
9164616,"Main St at Pinta Ave SB",5633,"Green Line","GRL"
9164616,"Main St at Pinta Ave SB",5635,"R1 - Hamilton/Middletown Shuttle","R1"
9164617,"Main St at Moose Lodge SB",5633,"Green Line","GRL"
9164617,"Main St at Moose Lodge SB",5635,"R1 - Hamilton/Middletown Shuttle","R1"
9221360,"S 2nd St & Long St",5640,"R6 - Job Connector","R6 "
9221865,"Forest Hills Dr & N Breiel Blvd",5636,"Red Line","RL"
9355648,"From Riverfront Transit Center",6067,"CincyLink","CL"
9357242,"To Riverfront Transit Center",6067,"CincyLink","CL"
9637114,"Shafor St at Elmo Pl",5636,"Red Line","RL"
9637115,"130 N Breiel Blvd",5636,"Red Line","RL"
9637116,"Towne Blvd at Village Dr",5620,"Blue Line","BL"
9637494,"Market Ave at Union Rd",5636,"Red Line","RL"
9637496,"Main and Oxford State (Dad's Restaurant) SB",5635,"R1 - Hamilton/Middletown Shuttle","R1"
9637557,"Jewell Ave at Scott St",5633,"Green Line","GRL"
9637558,"Wilbraham Rd at Eldora Dr",5633,"Green Line","GRL"
9713824,"Verity Pkwy at Columbia Ave",5633,"Green Line","GRL"
9713824,"Verity Pkwy at Columbia Ave",5620,"Blue Line","BL"
9714055,"Roosevelt Blvd at Wicoff St",5632,"Gold Line","GL"
9718537,"Roosevelt Blvd at Orchard St",5632,"Gold Line","GL"
9737000,"Crawford St at First Ave (Red)",5636,"Red Line","RL"
9824150,"1200 Verity Pkwy",5633,"Green Line","GRL"
9824150,"1200 Verity Pkwy",5635,"R1 - Hamilton/Middletown Shuttle","R1"
9824723,"Dixie Hwy & Donald SB",5638,"R3 - Oxford-Forest Park Connector","R3"
9825084,"Forest Park Park & Ride",5638,"R3 - Oxford-Forest Park Connector","R3"